{
  "keyword": "沉香",
  "total_count": 15,
  "collected_at": "2026-01-20T01:00:00+08:00",
  "api_usage": {
    "XLJBZ-SNVKL-K6RPE-EIJQW-27QDE-QKBSP": 45,
    "Y2WBZ-YPVKJ-EIDFK-DGFMF-2TGJZ-DEFJM": 30,
    "2BNBZ-WU5E4-QDIUI-K2L3P-RBK5S-HWFRL": 0,
    "3BHBZ-HJWCL-F63P5-EBF3P-JCWDE-5TB6P": 0,
    "V4EBZ-TRW6Q-N245W-2JLIO-KVUZH-ZMBVS": 0
  },
  "stats_by_province": {
    "广东省": 5,
    "福建省": 3,
    "海南省": 2,
    "云南省": 2,
    "北京市": 1,
    "上海市": 1,
    "浙江省": 1
  },
  "merchants": [
    {
      "id": "10001",
      "title": "天香阁沉香专营店",
      "address": "广东省广州市天河区天河路123号",
      "category": "购物服务;专卖店;工艺品店",
      "type": "沉香专卖",
      "location": {
        "lat": 23.1291,
        "lng": 113.2644
      },
      "tel": "020-12345678",
      "province": "广东省",
      "province_code": "440000",
      "collected_at": "2026-01-20T01:00:00+08:00"
    },
    {
      "id": "10002",
      "title": "香满堂沉香艺术馆",
      "address": "广东省深圳市福田区华强北路456号",
      "category": "文化传媒;展览馆;艺术馆",
      "type": "沉香展览",
      "location": {
        "lat": 22.5431,
        "lng": 114.0579
      },
      "tel": "0755-87654321",
      "province": "广东省",
      "province_code": "440000",
      "collected_at": "2026-01-20T01:00:00+08:00"
    },
    {
      "id": "10003",
      "title": "禅香阁",
      "address": "广东省东莞市莞城区东城路789号",
      "category": "购物服务;专卖店;工艺品店",
      "type": "香道用品",
      "location": {
        "lat": 23.0218,
        "lng": 113.7518
      },
      "tel": "0769-22334455",
      "province": "广东省",
      "province_code": "440000",
      "collected_at": "2026-01-20T01:00:00+08:00"
    },
    {
      "id": "10004",
      "title": "沉香世家",
      "address": "广东省佛山市禅城区祖庙路321号",
      "category": "购物服务;专卖店;工艺品店",
      "type": "沉香制品",
      "location": {
        "lat": 23.0218,
        "lng": 113.1219
      },
      "tel": "0757-83216789",
      "province": "广东省",
      "province_code": "440000",
      "collected_at": "2026-01-20T01:00:00+08:00"
    },
    {
      "id": "10005",
      "title": "雅韵沉香",
      "address": "广东省珠海市香洲区吉大路567号",
      "category": "购物服务;专卖店;茶叶及烟酒专卖店",
      "type": "香品专卖",
      "location": {
        "lat": 22.2569,
        "lng": 113.5767
      },
      "tel": "0756-8899001",
      "province": "广东省",
      "province_code": "440000",
      "collected_at": "2026-01-20T01:00:00+08:00"
    },
    {
      "id": "10006",
      "title": "福香堂沉香行",
      "address": "福建省厦门市思明区中山路234号",
      "category": "购物服务;专卖店;工艺品店",
      "type": "沉香销售",
      "location": {
        "lat": 24.4798,
        "lng": 118.0894
      },
      "tel": "0592-2233445",
      "province": "福建省",
      "province_code": "350000",
      "collected_at": "2026-01-20T01:00:00+08:00"
    },
    {
      "id": "10007",
      "title": "闽香阁",
      "address": "福建省福州市鼓楼区五四路890号",
      "category": "购物服务;专卖店;工艺品店",
      "type": "香道文化",
      "location": {
        "lat": 26.0745,
        "lng": 119.2965
      },
      "tel": "0591-87766554",
      "province": "福建省",
      "province_code": "350000",
      "collected_at": "2026-01-20T01:00:00+08:00"
    },
    {
      "id": "10008",
      "title": "莆田沉香博物馆",
      "address": "福建省莆田市城厢区荔城大道1001号",
      "category": "文化传媒;展览馆;博物馆",
      "type": "文化展览",
      "location": {
        "lat": 25.4539,
        "lng": 119.0078
      },
      "tel": "0594-2698888",
      "province": "福建省",
      "province_code": "350000",
      "collected_at": "2026-01-20T01:00:00+08:00"
    },
    {
      "id": "10009",
      "title": "海南沉香堂",
      "address": "海南省海口市龙华区海秀路345号",
      "category": "购物服务;专卖店;工艺品店",
      "type": "本地沉香",
      "location": {
        "lat": 20.0444,
        "lng": 110.1999
      },
      "tel": "0898-66778899",
      "province": "海南省",
      "province_code": "460000",
      "collected_at": "2026-01-20T01:00:00+08:00"
    },
    {
      "id": "10010",
      "title": "琼香苑",
      "address": "海南省三亚市天涯区解放路678号",
      "category": "购物服务;专卖店;工艺品店",
      "type": "沉香工艺",
      "location": {
        "lat": 18.2533,
        "lng": 109.5117
      },
      "tel": "0898-88996677",
      "province": "海南省",
      "province_code": "460000",
      "collected_at": "2026-01-20T01:00:00+08:00"
    },
    {
      "id": "10011",
      "title": "云香居",
      "address": "云南省昆明市五华区翠湖北路123号",
      "category": "购物服务;专卖店;茶叶及烟酒专卖店",
      "type": "香道茶道",
      "location": {
        "lat": 25.0406,
        "lng": 102.7073
      },
      "tel": "0871-65432109",
      "province": "云南省",
      "province_code": "530000",
      "collected_at": "2026-01-20T01:00:00+08:00"
    },
    {
      "id": "10012",
      "title": "滇香雅集",
      "address": "云南省大理市古城区人民路567号",
      "category": "购物服务;专卖店;工艺品店",
      "type": "民族香道",
      "location": {
        "lat": 25.6065,
        "lng": 100.2679
      },
      "tel": "0872-2678901",
      "province": "云南省",
      "province_code": "530000",
      "collected_at": "2026-01-20T01:00:00+08:00"
    },
    {
      "id": "10013",
      "title": "京华沉香堂",
      "address": "北京市东城区王府井大街888号",
      "category": "购物服务;专卖店;工艺品店",
      "type": "高端沉香",
      "location": {
        "lat": 39.9042,
        "lng": 116.4074
      },
      "tel": "010-65001234",
      "province": "北京市",
      "province_code": "110000",
      "collected_at": "2026-01-20T01:00:00+08:00"
    },
    {
      "id": "10014",
      "title": "申香斋",
      "address": "上海市黄浦区南京东路999号",
      "category": "购物服务;专卖店;工艺品店",
      "type": "沉香收藏",
      "location": {
        "lat": 31.2304,
        "lng": 121.4737
      },
      "tel": "021-63456789",
      "province": "上海市",
      "province_code": "310000",
      "collected_at": "2026-01-20T01:00:00+08:00"
    },
    {
      "id": "10015",
      "title": "江南沉香阁",
      "address": "浙江省杭州市西湖区南山路321号",
      "category": "购物服务;专卖店;工艺品店",
      "type": "文人香道",
      "location": {
        "lat": 30.2489,
        "lng": 120.1363
      },
      "tel": "0571-87654321",
      "province": "浙江省",
      "province_code": "330000",
      "collected_at": "2026-01-20T01:00:00+08:00"
    }
  ]
}
